<?xml version="1.0" encoding="UTF-8"?>
<Sites>
	<Site>
		<ID>pabc</ID>
		<Lat>60.793</Lat>
		<Lon>-161.874</Lon>
		<State>AK</State>
		<City>Bethel</City>
	</Site>
	<Site>
		<ID>pacg</ID>
		<Lat>56.853</Lat>
		<Lon>-135.528</Lon>
		<State>AK</State>
		<City>Biorka Island</City>
	</Site>
	<Site>
		<ID>pahg</ID>
		<Lat>60.726</Lat>
		<Lon>-151.349</Lon>
		<State>AK</State>
		<City>Kenai</City>
	</Site>
	<Site>
		<ID>pakc</ID>
		<Lat>58.680</Lat>
		<Lon>-156.627</Lon>
		<State>AK</State>
		<City>King Salmon</City>
	</Site>
	<Site>
		<ID>paih</ID>
		<Lat>59.462</Lat>
		<Lon>-146.301</Lon>
		<State>AK</State>
		<City>Middleton Island</City>
	</Site>
	<Site>
		<ID>paec</ID>
		<Lat>64.512</Lat>
		<Lon>-165.293</Lon>
		<State>AK</State>
		<City>Nome</City>
	</Site>
	<Site>
		<ID>papd</ID>
		<Lat>65.036</Lat>
		<Lon>-147.499</Lon>
		<State>AK</State>
		<City>Pedro Dome</City>
	</Site>
	<Site>
		<ID>kbmx</ID>
		<Lat>33.172</Lat>
		<Lon>-86.770</Lon>
		<State>AL</State>
		<City>Birmingham</City>
	</Site>
	<Site>
		<ID>keox</ID>
		<Lat>31.460</Lat>
		<Lon>-85.459</Lon>
		<State>AL</State>
		<City>Fort Rucker</City>
	</Site>
	<Site>
		<ID>khtx</ID>
		<Lat>34.931</Lat>
		<Lon>-86.084</Lon>
		<State>AL</State>
		<City>Huntsville</City>
	</Site>
	<Site>
		<ID>kmxx</ID>
		<Lat>32.537</Lat>
		<Lon>-85.790</Lon>
		<State>AL</State>
		<City>Maxwell AFB</City>
	</Site>
	<Site>
		<ID>kmob</ID>
		<Lat>30.679</Lat>
		<Lon>-88.240</Lon>
		<State>AL</State>
		<City>Mobile</City>
	</Site>
	<Site>
		<ID>ksrx</ID>
		<Lat>35.291</Lat>
		<Lon>-94.362</Lon>
		<State>AR</State>
		<City>Fort Smith</City>
	</Site>
	<Site>
		<ID>klzk</ID>
		<Lat>34.836</Lat>
		<Lon>-92.262</Lon>
		<State>AR</State>
		<City>Little Rock</City>
	</Site>
	<Site>
		<ID>kfsx</ID>
		<Lat>34.574</Lat>
		<Lon>-111.197</Lon>
		<State>AZ</State>
		<City>Flagstaff</City>
	</Site>
	<Site>
		<ID>kiwa</ID>
		<Lat>33.289</Lat>
		<Lon>-111.670</Lon>
		<State>AZ</State>
		<City>Phoenix</City>
	</Site>
	<Site>
		<ID>kemx</ID>
		<Lat>31.894</Lat>
		<Lon>-110.630</Lon>
		<State>AZ</State>
		<City>Tucson</City>
	</Site>
	<Site>
		<ID>kyux</ID>
		<Lat>32.495</Lat>
		<Lon>-114.656</Lon>
		<State>AZ</State>
		<City>Yuma</City>
	</Site>
	<Site>
		<ID>kbbx</ID>
		<Lat>39.496</Lat>
		<Lon>-121.632</Lon>
		<State>CA</State>
		<City>Beale AFB</City>
	</Site>
	<Site>
		<ID>keyx</ID>
		<Lat>35.098</Lat>
		<Lon>-117.560</Lon>
		<State>CA</State>
		<City>Edwards AFB</City>
	</Site>
	<Site>
		<ID>kbhx</ID>
		<Lat>40.499</Lat>
		<Lon>-124.291</Lon>
		<State>CA</State>
		<City>Eureka</City>
	</Site>
	<Site>
		<ID>kvtx</ID>
		<Lat>34.412</Lat>
		<Lon>-119.179</Lon>
		<State>CA</State>
		<City>Los Angeles</City>
	</Site>
	<Site>
		<ID>kdax</ID>
		<Lat>38.501</Lat>
		<Lon>-121.677</Lon>
		<State>CA</State>
		<City>Sacramento</City>
	</Site>
	<Site>
		<ID>knkx</ID>
		<Lat>32.919</Lat>
		<Lon>-117.041</Lon>
		<State>CA</State>
		<City>San Diego</City>
	</Site>
	<Site>
		<ID>kmux</ID>
		<Lat>37.155</Lat>
		<Lon>-121.897</Lon>
		<State>CA</State>
		<City>San Francisco</City>
	</Site>
	<Site>
		<ID>khnx</ID>
		<Lat>36.314</Lat>
		<Lon>-119.631</Lon>
		<State>CA</State>
		<City>San Joaquin Valley</City>
	</Site>
	<Site>
		<ID>ksox</ID>
		<Lat>33.818</Lat>
		<Lon>-117.635</Lon>
		<State>CA</State>
		<City>Santa Ana Mountain</City>
	</Site>
	<Site>
		<ID>kvbx</ID>
		<Lat>34.838</Lat>
		<Lon>-120.396</Lon>
		<State>CA</State>
		<City>Vandenberg AFB</City>
	</Site>
	<Site>
		<ID>kftg</ID>
		<Lat>39.786</Lat>
		<Lon>-104.545</Lon>
		<State>CO</State>
		<City>Denver/Boulder</City>
	</Site>
	<Site>
		<ID>kgjx</ID>
		<Lat>39.062</Lat>
		<Lon>-108.213</Lon>
		<State>CO</State>
		<City>Grand Junction</City>
	</Site>
	<Site>
		<ID>kpux</ID>
		<Lat>38.459</Lat>
		<Lon>-104.181</Lon>
		<State>CO</State>
		<City>Pueblo</City>
	</Site>
	<Site>
		<ID>kdox</ID>
		<Lat>38.826</Lat>
		<Lon>-75.440</Lon>
		<State>DE</State>
		<City>Dover AFB</City>
	</Site>
	<Site>
		<ID>kevx</ID>
		<Lat>30.564</Lat>
		<Lon>-85.921</Lon>
		<State>FL</State>
		<City>Eglin AFB</City>
	</Site>
	<Site>
		<ID>kjax</ID>
		<Lat>30.484</Lat>
		<Lon>-81.702</Lon>
		<State>FL</State>
		<City>Jacksonville</City>
	</Site>
	<Site>
		<ID>kbyx</ID>
		<Lat>24.597</Lat>
		<Lon>-81.703</Lon>
		<State>FL</State>
		<City>Key West</City>
	</Site>
	<Site>
		<ID>kmlb</ID>
		<Lat>28.113</Lat>
		<Lon>-80.654</Lon>
		<State>FL</State>
		<City>Melbourne</City>
	</Site>
	<Site>
		<ID>kamx</ID>
		<Lat>25.611</Lat>
		<Lon>-80.413</Lon>
		<State>FL</State>
		<City>Miami</City>
	</Site>
	<Site>
		<ID>ktlh</ID>
		<Lat>30.398</Lat>
		<Lon>-84.329</Lon>
		<State>FL</State>
		<City>Tallahassee</City>
	</Site>
	<Site>
		<ID>ktbw</ID>
		<Lat>27.705</Lat>
		<Lon>-82.402</Lon>
		<State>FL</State>
		<City>Tampa</City>
	</Site>
	<Site>
		<ID>kffc</ID>
		<Lat>33.363</Lat>
		<Lon>-84.566</Lon>
		<State>GA</State>
		<City>Atlanta</City>
	</Site>
	<Site>
		<ID>kvax</ID>
		<Lat>30.890</Lat>
		<Lon>-83.002</Lon>
		<State>GA</State>
		<City>Moody AFB</City>
	</Site>
	<Site>
		<ID>kjgx</ID>
		<Lat>32.675</Lat>
		<Lon>-83.351</Lon>
		<State>GA</State>
		<City>Robins AFB</City>
	</Site>
	<Site>
		<ID>pgua</ID>
		<Lat>13.456</Lat>
		<Lon>144.811</Lon>
		<State>GU</State>
		<City>Andersen AFB</City>
	</Site>
	<Site>
		<ID>phki</ID>
		<Lat>21.894</Lat>
		<Lon>-159.552</Lon>
		<State>HI</State>
		<City>Kauai</City>
	</Site>
	<Site>
		<ID>phkm</ID>
		<Lat>20.129</Lat>
		<Lon>-155.781</Lon>
		<State>HI</State>
		<City>Kohala</City>
	</Site>
	<Site>
		<ID>phmo</ID>
		<Lat>21.136</Lat>
		<Lon>-157.183</Lon>
		<State>HI</State>
		<City>Molokai</City>
	</Site>
	<Site>
		<ID>phwa</ID>
		<Lat>19.098</Lat>
		<Lon>-155.572</Lon>
		<State>HI</State>
		<City>South Shore</City>
	</Site>
	<Site>
		<ID>kdmx</ID>
		<Lat>41.731</Lat>
		<Lon>-93.723</Lon>
		<State>IA</State>
		<City>Des Moines</City>
	</Site>
	<Site>
		<ID>kdvn</ID>
		<Lat>41.612</Lat>
		<Lon>-90.581</Lon>
		<State>IA</State>
		<City>Quad Cities</City>
	</Site>
	<Site>
		<ID>kcbx</ID>
		<Lat>43.491</Lat>
		<Lon>-116.234</Lon>
		<State>ID</State>
		<City>Boise</City>
	</Site>
	<Site>
		<ID>ksfx</ID>
		<Lat>43.106</Lat>
		<Lon>-112.685</Lon>
		<State>ID</State>
		<City>Pocatello</City>
	</Site>
	<Site>
		<ID>klot</ID>
		<Lat>41.604</Lat>
		<Lon>-88.085</Lon>
		<State>IL</State>
		<City>Chicago</City>
	</Site>
	<Site>
		<ID>kilx</ID>
		<Lat>40.151</Lat>
		<Lon>-89.337</Lon>
		<State>IL</State>
		<City>Lincoln</City>
	</Site>
	<Site>
		<ID>kvwx</ID>
		<Lat>38.260</Lat>
		<Lon>-87.724</Lon>
		<State>IN</State>
		<City>Evansville</City>
	</Site>
	<Site>
		<ID>kiwx</ID>
		<Lat>41.359</Lat>
		<Lon>-85.700</Lon>
		<State>IN</State>
		<City>Fort Wayne</City>
	</Site>
	<Site>
		<ID>kind</ID>
		<Lat>39.708</Lat>
		<Lon>-86.280</Lon>
		<State>IN</State>
		<City>Indianapolis</City>
	</Site>
	<Site>
		<ID>kddc</ID>
		<Lat>37.761</Lat>
		<Lon>-99.968</Lon>
		<State>KS</State>
		<City>Dodge City</City>
	</Site>
	<Site>
		<ID>kgld</ID>
		<Lat>39.366</Lat>
		<Lon>-101.700</Lon>
		<State>KS</State>
		<City>Goodland</City>
	</Site>
	<Site>
		<ID>ktwx</ID>
		<Lat>38.997</Lat>
		<Lon>-96.232</Lon>
		<State>KS</State>
		<City>Topeka</City>
	</Site>
	<Site>
		<ID>kict</ID>
		<Lat>37.654</Lat>
		<Lon>-97.443</Lon>
		<State>KS</State>
		<City>Wichita</City>
	</Site>
	<Site>
		<ID>khpx</ID>
		<Lat>36.737</Lat>
		<Lon>-87.285</Lon>
		<State>KY</State>
		<City>Fort Campbell</City>
	</Site>
	<Site>
		<ID>kjkl</ID>
		<Lat>37.591</Lat>
		<Lon>-83.313</Lon>
		<State>KY</State>
		<City>Jackson</City>
	</Site>
	<Site>
		<ID>klvx</ID>
		<Lat>37.975</Lat>
		<Lon>-85.944</Lon>
		<State>KY</State>
		<City>Louisville</City>
	</Site>
	<Site>
		<ID>kpah</ID>
		<Lat>37.068</Lat>
		<Lon>-88.772</Lon>
		<State>KY</State>
		<City>Paducah</City>
	</Site>
	<Site>
		<ID>kpoe</ID>
		<Lat>31.155</Lat>
		<Lon>-92.976</Lon>
		<State>LA</State>
		<City>Fort Polk</City>
	</Site>
	<Site>
		<ID>klch</ID>
		<Lat>30.125</Lat>
		<Lon>-93.216</Lon>
		<State>LA</State>
		<City>Lake Charles</City>
	</Site>
	<Site>
		<ID>klix</ID>
		<Lat>30.337</Lat>
		<Lon>-89.825</Lon>
		<State>LA</State>
		<City>New Orleans</City>
	</Site>
	<Site>
		<ID>kshv</ID>
		<Lat>32.451</Lat>
		<Lon>-93.841</Lon>
		<State>LA</State>
		<City>Shreveport</City>
	</Site>
	<Site>
		<ID>kbox</ID>
		<Lat>41.956</Lat>
		<Lon>-71.138</Lon>
		<State>MA</State>
		<City>Boston</City>
	</Site>
	<Site>
		<ID>kcbw</ID>
		<Lat>46.039</Lat>
		<Lon>-67.807</Lon>
		<State>ME</State>
		<City>Caribou</City>
	</Site>
	<Site>
		<ID>kgyx</ID>
		<Lat>43.891</Lat>
		<Lon>-70.257</Lon>
		<State>ME</State>
		<City>Portland</City>
	</Site>
	<Site>
		<ID>kdtx</ID>
		<Lat>42.700</Lat>
		<Lon>-83.472</Lon>
		<State>MI</State>
		<City>Detroit</City>
	</Site>
	<Site>
		<ID>kapx</ID>
		<Lat>44.907</Lat>
		<Lon>-84.720</Lon>
		<State>MI</State>
		<City>Gaylord</City>
	</Site>
	<Site>
		<ID>kgrr</ID>
		<Lat>42.894</Lat>
		<Lon>-85.545</Lon>
		<State>MI</State>
		<City>Grand Rapids</City>
	</Site>
	<Site>
		<ID>kmqt</ID>
		<Lat>46.531</Lat>
		<Lon>-87.548</Lon>
		<State>MI</State>
		<City>Marquette</City>
	</Site>
	<Site>
		<ID>kdlh</ID>
		<Lat>46.837</Lat>
		<Lon>-92.210</Lon>
		<State>MN</State>
		<City>Duluth</City>
	</Site>
	<Site>
		<ID>kmpx</ID>
		<Lat>44.849</Lat>
		<Lon>-93.565</Lon>
		<State>MN</State>
		<City>Minneapolis</City>
	</Site>
	<Site>
		<ID>keax</ID>
		<Lat>38.810</Lat>
		<Lon>-94.264</Lon>
		<State>MO</State>
		<City>Kansas City</City>
	</Site>
	<Site>
		<ID>ksgf</ID>
		<Lat>37.235</Lat>
		<Lon>-93.400</Lon>
		<State>MO</State>
		<City>Springfield</City>
	</Site>
	<Site>
		<ID>klsx</ID>
		<Lat>38.699</Lat>
		<Lon>-90.683</Lon>
		<State>MO</State>
		<City>St. Louis</City>
	</Site>
	<Site>
		<ID>kgwx</ID>
		<Lat>33.897</Lat>
		<Lon>-88.329</Lon>
		<State>MS</State>
		<City>Columbus AFB</City>
	</Site>
	<Site>
		<ID>kdgx</ID>
		<Lat>32.280</Lat>
		<Lon>-89.984</Lon>
		<State>MS</State>
		<City>Jackson</City>
	</Site>
	<Site>
		<ID>kblx</ID>
		<Lat>45.854</Lat>
		<Lon>-108.606</Lon>
		<State>MT</State>
		<City>Billings</City>
	</Site>
	<Site>
		<ID>kggw</ID>
		<Lat>48.206</Lat>
		<Lon>-106.624</Lon>
		<State>MT</State>
		<City>Glasgow</City>
	</Site>
	<Site>
		<ID>ktfx</ID>
		<Lat>47.460</Lat>
		<Lon>-111.385</Lon>
		<State>MT</State>
		<City>Great Falls</City>
	</Site>
	<Site>
		<ID>kmsx</ID>
		<Lat>47.041</Lat>
		<Lon>-113.986</Lon>
		<State>MT</State>
		<City>Missoula</City>
	</Site>
	<Site>
		<ID>kmhx</ID>
		<Lat>34.776</Lat>
		<Lon>-76.876</Lon>
		<State>NC</State>
		<City>Morehead City</City>
	</Site>
	<Site>
		<ID>krax</ID>
		<Lat>35.665</Lat>
		<Lon>-78.490</Lon>
		<State>NC</State>
		<City>Raleigh/Durham</City>
	</Site>
	<Site>
		<ID>kltx</ID>
		<Lat>33.989</Lat>
		<Lon>-78.429</Lon>
		<State>NC</State>
		<City>Wilmington</City>
	</Site>
	<Site>
		<ID>kbis</ID>
		<Lat>46.771</Lat>
		<Lon>-100.760</Lon>
		<State>ND</State>
		<City>Bismarck</City>
	</Site>
	<Site>
		<ID>kmvx</ID>
		<Lat>47.528</Lat>
		<Lon>-97.325</Lon>
		<State>ND</State>
		<City>Grand Forks</City>
	</Site>
	<Site>
		<ID>kmbx</ID>
		<Lat>48.393</Lat>
		<Lon>-100.864</Lon>
		<State>ND</State>
		<City>Minot AFB</City>
	</Site>
	<Site>
		<ID>kuex</ID>
		<Lat>40.321</Lat>
		<Lon>-98.442</Lon>
		<State>NE</State>
		<City>Hastings</City>
	</Site>
	<Site>
		<ID>klnx</ID>
		<Lat>41.958</Lat>
		<Lon>-100.576</Lon>
		<State>NE</State>
		<City>North Platte</City>
	</Site>
	<Site>
		<ID>koax</ID>
		<Lat>41.320</Lat>
		<Lon>-96.366</Lon>
		<State>NE</State>
		<City>Omaha</City>
	</Site>
	<Site>
		<ID>kabx</ID>
		<Lat>35.150</Lat>
		<Lon>-106.823</Lon>
		<State>NM</State>
		<City>Albuquerque</City>
	</Site>
	<Site>
		<ID>kfdx</ID>
		<Lat>34.635</Lat>
		<Lon>-103.629</Lon>
		<State>NM</State>
		<City>Cannon AFB</City>
	</Site>
	<Site>
		<ID>khdx</ID>
		<Lat>33.076</Lat>
		<Lon>-106.122</Lon>
		<State>NM</State>
		<City>Holloman AFB</City>
	</Site>
	<Site>
		<ID>klrx</ID>
		<Lat>40.740</Lat>
		<Lon>-116.803</Lon>
		<State>NV</State>
		<City>Elko</City>
	</Site>
	<Site>
		<ID>kesx</ID>
		<Lat>35.701</Lat>
		<Lon>-114.891</Lon>
		<State>NV</State>
		<City>Las Vegas</City>
	</Site>
	<Site>
		<ID>krgx</ID>
		<Lat>39.754</Lat>
		<Lon>-119.461</Lon>
		<State>NV</State>
		<City>Reno</City>
	</Site>
	<Site>
		<ID>kenx</ID>
		<Lat>42.586</Lat>
		<Lon>-74.064</Lon>
		<State>NY</State>
		<City>Albany</City>
	</Site>
	<Site>
		<ID>kbgm</ID>
		<Lat>42.201</Lat>
		<Lon>-75.985</Lon>
		<State>NY</State>
		<City>Binghamton</City>
	</Site>
	<Site>
		<ID>kbuf</ID>
		<Lat>42.949</Lat>
		<Lon>-78.737</Lon>
		<State>NY</State>
		<City>Buffalo</City>
	</Site>
	<Site>
		<ID>ktyx</ID>
		<Lat>43.756</Lat>
		<Lon>-75.680</Lon>
		<State>NY</State>
		<City>Montague</City>
	</Site>
	<Site>
		<ID>kokx</ID>
		<Lat>40.866</Lat>
		<Lon>-72.864</Lon>
		<State>NY</State>
		<City>Upton</City>
	</Site>
	<Site>
		<ID>kcle</ID>
		<Lat>41.413</Lat>
		<Lon>-81.860</Lon>
		<State>OH</State>
		<City>Cleveland</City>
	</Site>
	<Site>
		<ID>kiln</ID>
		<Lat>39.420</Lat>
		<Lon>-83.822</Lon>
		<State>OH</State>
		<City>Wilmington</City>
	</Site>
	<Site>
		<ID>kfdr</ID>
		<Lat>34.362</Lat>
		<Lon>-98.976</Lon>
		<State>OK</State>
		<City>Frederick</City>
	</Site>
	<Site>
		<ID>ktlx</ID>
		<Lat>35.333</Lat>
		<Lon>-97.278</Lon>
		<State>OK</State>
		<City>Oklahoma City</City>
	</Site>
	<Site>
		<ID>kinx</ID>
		<Lat>36.175</Lat>
		<Lon>-95.564</Lon>
		<State>OK</State>
		<City>Tulsa</City>
	</Site>
	<Site>
		<ID>kvnx</ID>
		<Lat>36.741</Lat>
		<Lon>-98.128</Lon>
		<State>OK</State>
		<City>Vance AFB</City>
	</Site>
	<Site>
		<ID>kmax</ID>
		<Lat>42.081</Lat>
		<Lon>-122.716</Lon>
		<State>OR</State>
		<City>Medford</City>
	</Site>
	<Site>
		<ID>kpdt</ID>
		<Lat>45.691</Lat>
		<Lon>-118.852</Lon>
		<State>OR</State>
		<City>Pendleton</City>
	</Site>
	<Site>
		<ID>krtx</ID>
		<Lat>45.715</Lat>
		<Lon>-122.964</Lon>
		<State>OR</State>
		<City>Portland</City>
	</Site>
	<Site>
		<ID>kdix</ID>
		<Lat>39.947</Lat>
		<Lon>-74.411</Lon>
		<State>PA</State>
		<City>Philadelphia</City>
	</Site>
	<Site>
		<ID>kpbz</ID>
		<Lat>40.531</Lat>
		<Lon>-80.218</Lon>
		<State>PA</State>
		<City>Pittsburgh</City>
	</Site>
	<Site>
		<ID>kccx</ID>
		<Lat>40.923</Lat>
		<Lon>-78.004</Lon>
		<State>PA</State>
		<City>State College</City>
	</Site>
	<Site>
		<ID>tjua</ID>
		<Lat>18.118</Lat>
		<Lon>-66.079</Lon>
		<State>PR</State>
		<City>Puerto Rico</City>
	</Site>
	<Site>
		<ID>kclx</ID>
		<Lat>32.655</Lat>
		<Lon>-81.042</Lon>
		<State>SC</State>
		<City>Charleston</City>
	</Site>
	<Site>
		<ID>kcae</ID>
		<Lat>33.949</Lat>
		<Lon>-81.119</Lon>
		<State>SC</State>
		<City>Columbia</City>
	</Site>
	<Site>
		<ID>kgsp</ID>
		<Lat>34.883</Lat>
		<Lon>-82.220</Lon>
		<State>SC</State>
		<City>Greer</City>
	</Site>
	<Site>
		<ID>kabr</ID>
		<Lat>45.456</Lat>
		<Lon>-98.413</Lon>
		<State>SD</State>
		<City>Aberdeen</City>
	</Site>
	<Site>
		<ID>kudx</ID>
		<Lat>44.125</Lat>
		<Lon>-102.829</Lon>
		<State>SD</State>
		<City>Rapid City</City>
	</Site>
	<Site>
		<ID>kfsd</ID>
		<Lat>43.588</Lat>
		<Lon>-96.729</Lon>
		<State>SD</State>
		<City>Sioux falls</City>
	</Site>
	<Site>
		<ID>kmrx</ID>
		<Lat>36.168</Lat>
		<Lon>-83.402</Lon>
		<State>TN</State>
		<City>Knoxville</City>
	</Site>
	<Site>
		<ID>knqa</ID>
		<Lat>35.345</Lat>
		<Lon>-89.873</Lon>
		<State>TN</State>
		<City>Memphis</City>
	</Site>
	<Site>
		<ID>kohx</ID>
		<Lat>36.247</Lat>
		<Lon>-86.563</Lon>
		<State>TN</State>
		<City>Nashville</City>
	</Site>
	<Site>
		<ID>kama</ID>
		<Lat>35.233</Lat>
		<Lon>-101.709</Lon>
		<State>TX</State>
		<City>Amarillo</City>
	</Site>
	<Site>
		<ID>kbro</ID>
		<Lat>25.916</Lat>
		<Lon>-97.419</Lon>
		<State>TX</State>
		<City>Brownsville</City>
	</Site>
	<Site>
		<ID>kgrk</ID>
		<Lat>30.722</Lat>
		<Lon>-97.383</Lon>
		<State>TX</State>
		<City>Central Texas</City>
	</Site>
	<Site>
		<ID>kcrp</ID>
		<Lat>27.784</Lat>
		<Lon>-97.511</Lon>
		<State>TX</State>
		<City>Corpus Christi</City>
	</Site>
	<Site>
		<ID>kfws</ID>
		<Lat>32.573</Lat>
		<Lon>-97.303</Lon>
		<State>TX</State>
		<City>Dallas/Fort Worth</City>
	</Site>
	<Site>
		<ID>kdyx</ID>
		<Lat>32.538</Lat>
		<Lon>-99.254</Lon>
		<State>TX</State>
		<City>Dyess AFB</City>
	</Site>
	<Site>
		<ID>kepz</ID>
		<Lat>31.873</Lat>
		<Lon>-106.698</Lon>
		<State>TX</State>
		<City>El Paso</City>
	</Site>
	<Site>
		<ID>khgx</ID>
		<Lat>29.472</Lat>
		<Lon>-95.079</Lon>
		<State>TX</State>
		<City>Houston</City>
	</Site>
	<Site>
		<ID>kdfx</ID>
		<Lat>29.273</Lat>
		<Lon>-100.280</Lon>
		<State>TX</State>
		<City>Laughlin AFB</City>
	</Site>
	<Site>
		<ID>klbb</ID>
		<Lat>33.654</Lat>
		<Lon>-101.814</Lon>
		<State>TX</State>
		<City>Lubbock</City>
	</Site>
	<Site>
		<ID>kmaf</ID>
		<Lat>31.943</Lat>
		<Lon>-102.189</Lon>
		<State>TX</State>
		<City>Midland/Odessa</City>
	</Site>
	<Site>
		<ID>ksjt</ID>
		<Lat>31.371</Lat>
		<Lon>-100.492</Lon>
		<State>TX</State>
		<City>San Angelo</City>
	</Site>
	<Site>
		<ID>kewx</ID>
		<Lat>29.704</Lat>
		<Lon>-98.028</Lon>
		<State>TX</State>
		<City>San Antonio</City>
	</Site>
	<Site>
		<ID>kicx</ID>
		<Lat>37.591</Lat>
		<Lon>-112.861</Lon>
		<State>UT</State>
		<City>Cedar City</City>
	</Site>
	<Site>
		<ID>kmtx</ID>
		<Lat>41.263</Lat>
		<Lon>-112.447</Lon>
		<State>UT</State>
		<City>Salt Lake City</City>
	</Site>
	<Site>
		<ID>kfcx</ID>
		<Lat>37.024</Lat>
		<Lon>-80.274</Lon>
		<State>VA</State>
		<City>Blacksburg</City>
	</Site>
	<Site>
		<ID>klwx</ID>
		<Lat>38.975</Lat>
		<Lon>-77.478</Lon>
		<State>VA</State>
		<City>Sterling</City>
	</Site>
	<Site>
		<ID>kakq</ID>
		<Lat>36.984</Lat>
		<Lon>-77.008</Lon>
		<State>VA</State>
		<City>Wakefield</City>
	</Site>
	<Site>
		<ID>kcxx</ID>
		<Lat>44.511</Lat>
		<Lon>-73.166</Lon>
		<State>VT</State>
		<City>Burlington</City>
	</Site>
	<Site>
		<ID>katx</ID>
		<Lat>48.195</Lat>
		<Lon>-122.494</Lon>
		<State>WA</State>
		<City>Seattle/Tacoma</City>
	</Site>
	<Site>
		<ID>kotx</ID>
		<Lat>47.681</Lat>
		<Lon>-117.626</Lon>
		<State>WA</State>
		<City>Spokane</City>
	</Site>
	<Site>
		<ID>kgrb</ID>
		<Lat>44.498</Lat>
		<Lon>-88.111</Lon>
		<State>WI</State>
		<City>Green Bay</City>
	</Site>
	<Site>
		<ID>karx</ID>
		<Lat>43.823</Lat>
		<Lon>-91.191</Lon>
		<State>WI</State>
		<City>La Crosse</City>
	</Site>
	<Site>
		<ID>kmkx</ID>
		<Lat>42.968</Lat>
		<Lon>-88.551</Lon>
		<State>WI</State>
		<City>Milwaukee</City>
	</Site>
	<Site>
		<ID>krlx</ID>
		<Lat>38.311</Lat>
		<Lon>-81.723</Lon>
		<State>WV</State>
		<City>Charleston</City>
	</Site>
	<Site>
		<ID>kcys</ID>
		<Lat>41.152</Lat>
		<Lon>-104.806</Lon>
		<State>WY</State>
		<City>Cheyenne</City>
	</Site>
	<Site>
		<ID>kriw</ID>
		<Lat>43.066</Lat>
		<Lon>-108.477</Lon>
		<State>WY</State>
		<City>Riverton</City>
	</Site>
	<Site>
		<ID>kriw</ID>
		<Lat>43.066</Lat>
		<Lon>-108.477</Lon>
		<State>WY</State>
		<City>Riverto</City>
	</Site>
</Sites>
